[{"city":"Salt Lake City","state":" Utah","amount":2522700.0,"name":"Ken Jennings","notes":"a software engineer from Salt Lake City, Utah","games":94.0,"Lat":"40.7607793","Lng":"-111.8910474","location":"40.7607793,-111.8910474"},{"city":"Las Vegas","state":" Nevada","amount":2464216.0,"name":"James Holzhauer","notes":"a professional sports gambler from Las Vegas, Nevada","games":33.0,"Lat":"36.171563","Lng":"-115.1391009","location":"36.171563,-115.1391009"},{"city":"Ridgewood","state":" New Jersey","amount":432400.0,"name":"David Madden","notes":"a student originally from Ridgewood, New Jersey","games":29.0,"Lat":"40.9792645","Lng":"-74.11653129999999","location":"40.9792645,-74.11653129999999"},{"city":"Kenilworth","state":" Illinois","amount":429100.0,"name":"Julia Collins","notes":"a supply chain professional from Kenilworth, Illinois","games":32.0,"Lat":"42.085862","Lng":"-87.71756069999999","location":"42.085862,-87.71756069999999"},{"city":"Washington","state":" D.C.","amount":413612.0,"name":"Matt Jackson","notes":"a paralegal from Washington, D.C.","games":27.0,"Lat":"38.9071923","Lng":"-77.0368707","location":"38.9071923,-77.0368707"},{"city":"New York","state":" New York","amount":413000.0,"name":"Austin Rogers","notes":"a bartender from New York, New York","games":26.0,"Lat":"40.7127753","Lng":"-74.0059728","location":"40.7127753,-74.0059728"},{"city":"Broadview Heights","state":" Ohio","amount":298200.0,"name":"Arthur Chu","notes":"a compliance analyst and voiceover artist from Broadview Heights, Ohio","games":16.0,"Lat":"41.3139426","Lng":"-81.6851271","location":"41.3139426,-81.6851271"},{"city":"Chicago","state":" Illinois","amount":267002.0,"name":"Seth Wilson","notes":"a Ph.D. candidate from Chicago, Illinois","games":21.0,"Lat":"41.8781136","Lng":"-87.6297982","location":"41.8781136,-87.6297982"},{"city":"Seattle","state":" Washington","amount":236405.0,"name":"Tom Nissley","notes":"an online books editor from Seattle, Washington","games":14.0,"Lat":"47.6062095","Lng":"-122.3320708","location":"47.6062095,-122.3320708"},{"city":"Newark","state":" Delaware","amount":231200.0,"name":"Roger Craig","notes":"a graduate student of computer science from Newark, Delaware","games":25.0,"Lat":"39.6837226","Lng":"-75.74965720000002","location":"39.6837226,-75.74965720000002"},{"city":"El Cerrito","state":" California","amount":223597.0,"name":"Larissa Kelly","notes":"a grad student from El Cerrito, California","games":19.0,"Lat":"37.9161326","Lng":"-122.310765","location":"37.9161326,-122.310765"},{"city":"Highland Park","state":" New Jersey","amount":215900.0,"name":"Jason Keller","notes":"a tutor from Highland Park, New Jersey","games":12.0,"Lat":"40.4959379","Lng":"-74.4243178","location":"40.4959379,-74.4243178"},{"city":"Somerville","state":" Massachusetts","amount":201000.0,"name":"Joon Pahk","notes":"a college physics teacher from Somerville, Massachusetts","games":10.0,"Lat":"42.3875968","Lng":"-71.0994968","location":"42.3875968,-71.0994968"},{"city":"Minneapolis","state":" Minnesota","amount":187199.0,"name":"Brian Weikle","notes":"a project manager from Minneapolis, Minnesota","games":10.0,"Lat":"44.977753","Lng":"-93.2650108","location":"44.977753,-93.2650108"},{"city":"Washington","state":" D.C.","amount":186900.0,"name":"Tom Walsh","notes":"a writer from Washington, D.C.","games":13.0,"Lat":"38.9071923","Lng":"-77.0368707","location":"38.9071923,-77.0368707"},{"city":"Austin","state":" Texas","amount":182001.0,"name":"Jared Hall","notes":"a graduate student in global policy studies from Austin, Texas","games":9.0,"Lat":"30.267153","Lng":"-97.7430608","location":"30.267153,-97.7430608"},{"city":"Steamboat Springs","state":" Colorado","amount":181401.0,"name":"Greg Seroka","notes":"a chef from Steamboat Springs, Colorado","games":9.0,"Lat":"40.4849769","Lng":"-106.8317158","location":"40.4849769,-106.8317158"},{"city":"Florence","state":" South Carolina","amount":177534.0,"name":"Ben Ingram","notes":"an IT consultant originally from Florence, South Carolina","games":20.0,"Lat":"34.1954331","Lng":"-79.7625625","location":"34.1954331,-79.7625625"},{"city":"Amherst","state":" Ohio","amount":172202.0,"name":"Andrew Pau","notes":"an assistant professor from Amherst, Ohio","games":9.0,"Lat":"41.3978217","Lng":"-82.2223774","location":"41.3978217,-82.2223774"},{"city":"Boston","state":" Massachusetts","amount":171902.0,"name":"Dan Pawson","notes":"a legislative aide from Boston, Massachusetts","games":16.0,"Lat":"42.3600825","Lng":"-71.0588801","location":"42.3600825,-71.0588801"},{"city":"Los Angeles","state":" California","amount":166603.0,"name":"Buzzy Cohen","notes":"a music executive from Los Angeles, California","games":21.0,"Lat":"34.0522342","Lng":"-118.2436849","location":"34.0522342,-118.2436849"},{"city":"North Little Rock","state":" Arkansas","amount":164721.0,"name":"Josh Hill","notes":"a network engineer from North Little Rock, Arkansas","games":8.0,"Lat":"34.756104","Lng":"-92.2677497","location":"34.756104,-92.2677497"},{"city":"Minneapolis","state":" Minnesota","amount":157202.0,"name":"Sam Kavanaugh","notes":"a teacher from Minneapolis, Minnesota","games":6.0,"Lat":"44.977753","Lng":"-93.2650108","location":"44.977753,-93.2650108"},{"city":"Brooklyn","state":" New York","amount":157001.0,"name":"Justin Bernbach","notes":"a lobbyist from Brooklyn, New York","games":10.0,"Lat":"40.6781784","Lng":"-73.9441579","location":"40.6781784,-73.9441579"},{"city":"Moscow","state":" Idaho","amount":154800.0,"name":"Mark Runsvold","notes":"a student and waiter from Moscow, Idaho","games":7.0,"Lat":"46.73238749999999","Lng":"-117.0001651","location":"46.73238749999999,-117.0001651"},{"city":"Chicago","state":" Illinois","amount":151802.0,"name":"Alex Jacob","notes":"a currency trader from Chicago, Illinois","games":18.0,"Lat":"41.8781136","Lng":"-87.6297982","location":"41.8781136,-87.6297982"},{"city":"Milan","state":" Michigan","amount":149570.0,"name":"Stephanie Jass","notes":"a history professor from Milan, Michigan","games":11.0,"Lat":"42.0853204","Lng":"-83.6824384","location":"42.0853204,-83.6824384"},{"city":"South Dayton","state":" New York","amount":149404.0,"name":"Jason Zollinger","notes":"an engine assembler from South Dayton, New York","games":11.0,"Lat":"42.3642269","Lng":"-79.0555948","location":"42.3642269,-79.0555948"},{"city":"Charlotte","state":" North Carolina","amount":148597.0,"name":"Keith Whitener","notes":"a research chemist originally from Charlotte, North Carolina","games":13.0,"Lat":"35.2270869","Lng":"-80.8431267","location":"35.2270869,-80.8431267"},{"city":"Mount Airy","state":" North Carolina","amount":147603.0,"name":"Hunter Appler","notes":"an attorney originally from Mount Airy, North Carolina","games":8.0,"Lat":"36.4999641","Lng":"-80.6053793","location":"36.4999641,-80.6053793"},{"city":"Manchester","state":" New Hampshire","amount":147598.0,"name":"Kerry Greene","notes":"a volunteer guardian ad litem from Manchester, New Hampshire","games":11.0,"Lat":"42.9956397","Lng":"-71.4547891","location":"42.9956397,-71.4547891"},{"city":"Aurora","state":" Colorado","amount":147403.0,"name":"Kyle Jones","notes":"a music teacher from Aurora, Colorado","games":8.0,"Lat":"39.7294319","Lng":"-104.8319195","location":"39.7294319,-104.8319195"},{"city":"St. Louis","state":" Missouri","amount":144602.0,"name":"Tom Kavanaugh","notes":"a writer from St. Louis, Missouri","games":11.0,"Lat":"38.6270025","Lng":"-90.19940419999999","location":"38.6270025,-90.19940419999999"},{"city":"Amherst","state":" New York","amount":142804.0,"name":"Mark Wales","notes":"a substitute teacher from Amherst, New York","games":8.0,"Lat":"42.9754691","Lng":"-78.7922335","location":"42.9754691,-78.7922335"},{"city":"Fairview Park","state":" Ohio","amount":142600.0,"name":"Jim Stevens","notes":"a math teacher from Fairview Park, Ohio","games":8.0,"Lat":"41.4414366","Lng":"-81.8643039","location":"41.4414366,-81.8643039"},{"city":"Eastpointe","state":" Michigan","amount":142200.0,"name":"Sandie Baker","notes":"a translation coordinator from Eastpointe, Michigan","games":9.0,"Lat":"42.4683698","Lng":"-82.9554746","location":"42.4683698,-82.9554746"},{"city":"Berwyn","state":" Pennsylvania","amount":141100.0,"name":"Lisa Schlitt","notes":"a microbiologist from Berwyn, Pennsylvania","games":9.0,"Lat":"40.045824","Lng":"-75.4395931","location":"40.045824,-75.4395931"},{"city":"Buford","state":" Georgia","amount":139803.0,"name":"Andrew Moore","notes":"a test prep instructor from Buford, Georgia","games":8.0,"Lat":"34.1206564","Lng":"-84.0043513","location":"34.1206564,-84.0043513"},{"city":"Minneapolis","state":" Minnesota","amount":139100.0,"name":"Drew Horwood","notes":"a business analyst from Minneapolis, Minnesota","games":10.0,"Lat":"44.977753","Lng":"-93.2650108","location":"44.977753,-93.2650108"},{"city":"Shaker Heights","state":" Ohio","amount":139088.0,"name":"Pranjal Vachaspati","notes":"a Ph.D. student originally from Shaker Heights, Ohio","games":9.0,"Lat":"41.4739419","Lng":"-81.5370671","location":"41.4739419,-81.5370671"},{"city":"New York","state":" New York","amount":138300.0,"name":"Arthur Gandolfi","notes":"a commercial real estate executive from New York, New York","games":9.0,"Lat":"40.7127753","Lng":"-74.0059728","location":"40.7127753,-74.0059728"},{"city":"Albuquerque","state":" New Mexico","amount":137300.0,"name":"Jason Zuffranieri","notes":"a math teacher from Albuquerque, New Mexico","games":6.0,"Lat":"35.0843859","Lng":"-106.650422","location":"35.0843859,-106.650422"},{"city":"Nellis Air Force Base","state":" Las Vegas","amount":136801.0,"name":"Dave Belote","notes":" the base commander from Nellis Air Force Base, Las Vegas","games":8.0,"Lat":"36.2406295","Lng":"-115.0542759","location":"36.2406295,-115.0542759"},{"city":"Baltimore","state":" Maryland","amount":136000.0,"name":"Justin Sausville","notes":"a urologist from Baltimore, Maryland","games":9.0,"Lat":"39.2903848","Lng":"-76.6121893","location":"39.2903848,-76.6121893"},{"city":"Edina","state":" Minnesota","amount":134900.0,"name":"Rob Worman","notes":"an escalation manager from Edina, Minnesota","games":7.0,"Lat":"44.8896866","Lng":"-93.3499489","location":"44.8896866,-93.3499489"},{"city":"Orlando","state":" Florida","amount":134402.0,"name":"Tom Kunzen","notes":"a geotechnical engineer from Orlando, Florida","games":7.0,"Lat":"28.5383832","Lng":"-81.3789269","location":"28.5383832,-81.3789269"},{"city":"Annapolis","state":" Maryland","amount":130804.0,"name":"Jay Rhee","notes":"an oncologist from Annapolis, Maryland","games":9.0,"Lat":"38.9784453","Lng":"-76.4921829","location":"38.9784453,-76.4921829"},{"city":"Durham","state":" New Hampshire","amount":130100.0,"name":"Mehrun Etebari","notes":"a grad student from Durham, New Hampshire","games":7.0,"Lat":"43.1339545","Lng":"-70.9264393","location":"43.1339545,-70.9264393"},{"city":"Washington","state":" D.C.","amount":129902.0,"name":"Aaron Schroeder","notes":"a graduate student originally from Washington, D.C.","games":10.0,"Lat":"38.9071923","Lng":"-77.0368707","location":"38.9071923,-77.0368707"},{"city":"Gillette","state":" New Jersey","amount":128998.0,"name":"Dan Feitel","notes":"an attorney originally from Gillette, New Jersey","games":8.0,"Lat":"40.6741134","Lng":"-74.4666778","location":"40.6741134,-74.4666778"},{"city":"Malden","state":" Massachusetts","amount":128404.0,"name":"Brennan Bushee","notes":"an operations analyst from Malden, Massachusetts","games":8.0,"Lat":"42.4250964","Lng":"-71.066163","location":"42.4250964,-71.066163"},{"city":"Studio City","state":" California","amount":127002.0,"name":"Jerome Vered","notes":"a writer from Studio City, California","games":18.0,"Lat":"34.1395597","Lng":"-118.3870991","location":"34.1395597,-118.3870991"},{"city":"Boardman","state":" Ohio","amount":126500.0,"name":"Andrew Rostan","notes":"a student originally from Boardman, Ohio","games":7.0,"Lat":"41.0242256","Lng":"-80.6628528","location":"41.0242256,-80.6628528"},{"city":"State College","state":" Pennsylvania","amount":125797.0,"name":"Sean Ryan","notes":"a taxi driver, bartender and student from State College, Pennsylvania","games":9.0,"Lat":"40.7933949","Lng":"-77.8600012","location":"40.7933949,-77.8600012"},{"city":"Santa Barbara","state":" California","amount":125600.0,"name":"Alan Lin","notes":"a software engineer from Santa Barbara, California","games":20.0,"Lat":"34.4208305","Lng":"-119.6981901","location":"34.4208305,-119.6981901"},{"city":"Louisville","state":" Kentucky","amount":125597.0,"name":"Chris Miller","notes":"a retail specialist from Louisville, Kentucky","games":13.0,"Lat":"38.2526647","Lng":"-85.7584557","location":"38.2526647,-85.7584557"},{"city":"Salt Lake City","state":" Utah","amount":124300.0,"name":"Maria Wenglinsky","notes":"a teacher originally from Salt Lake City, Utah","games":9.0,"Lat":"40.7607793","Lng":"-111.8910474","location":"40.7607793,-111.8910474"},{"city":"Plano","state":" Texas","amount":123705.0,"name":"Terry Linwood","notes":"a bookseller from Plano, Texas","games":8.0,"Lat":"33.0198431","Lng":"-96.6988856","location":"33.0198431,-96.6988856"},{"city":"Scranton","state":" Pennsylvania","amount":123302.0,"name":"Liz Murphy","notes":"a foreign service officer originally from Scranton, Pennsylvania","games":8.0,"Lat":"41.408969","Lng":"-75.66241219999999","location":"41.408969,-75.66241219999999"},{"city":"Albany","state":" New York","amount":122802.0,"name":"Paul Glaser","notes":"a research scientist from Albany, New York","games":8.0,"Lat":"42.6525793","Lng":"-73.7562317","location":"42.6525793,-73.7562317"},{"city":"Johns Creek","state":" Georgia","amount":122802.0,"name":"Alan Dunn","notes":"a software development manager from Johns Creek, Georgia","games":6.0,"Lat":"34.0289259","Lng":"-84.198579","location":"34.0289259,-84.198579"},{"city":"Arlington Heights","state":" Illinois","amount":122800.0,"name":"Jerry Slowik","notes":"a writer from Arlington Heights, Illinois","games":6.0,"Lat":"42.0883603","Lng":"-87.98062650000001","location":"42.0883603,-87.98062650000001"},{"city":"Torrance","state":" California","amount":118099.0,"name":"John Beck","notes":"a copywriter from Torrance, California","games":8.0,"Lat":"33.8358492","Lng":"-118.3406288","location":"33.8358492,-118.3406288"},{"city":"Aliso Viejo","state":" California","amount":117803.0,"name":"Cora Peck","notes":"a teacher and graduate student from Aliso Viejo, California","games":8.0,"Lat":"33.5684605","Lng":"-117.7262981","location":"33.5684605,-117.7262981"},{"city":"Oakland","state":" California","amount":117800.0,"name":"Joel Pool","notes":"a real estate developer from Oakland, California","games":8.0,"Lat":"37.8043514","Lng":"-122.2711639","location":"37.8043514,-122.2711639"},{"city":"Wilmington","state":" Delaware","amount":117102.0,"name":"Cathy Lanctot","notes":"a law professor from Wilmington, Delaware","games":7.0,"Lat":"39.744655","Lng":"-75.5483909","location":"39.744655,-75.5483909"},{"city":"Tucson","state":" Arizona","amount":116601.0,"name":"Craig Westphal","notes":"a paramedic from Tucson, Arizona","games":8.0,"Lat":"32.2539787","Lng":"-110.9741769","location":"32.2539787,-110.9741769"},{"city":"Long Beach","state":" California","amount":116503.0,"name":"David Menchaca","notes":"a law student originally from Long Beach, California","games":7.0,"Lat":"33.7700504","Lng":"-118.1937395","location":"33.7700504,-118.1937395"},{"city":"Atlanta","state":" Georgia","amount":116501.0,"name":"Steven Grade","notes":"a sports industry consultant from Atlanta, Georgia","games":6.0,"Lat":"33.748752","Lng":"-84.38768449999999","location":"33.748752,-84.38768449999999"},{"city":"Seattle","state":" Washington","amount":115800.0,"name":"Ben Bishop","notes":"a student originally from Seattle, Washington","games":7.0,"Lat":"47.6062095","Lng":"-122.3320708","location":"47.6062095,-122.3320708"},{"city":"Burlington","state":" Vermont","amount":114998.0,"name":"Scott Renzoni","notes":"a bartender and actor from Burlington, Vermont","games":6.0,"Lat":"44.4758825","Lng":"-73.21207199999999","location":"44.4758825,-73.21207199999999"},{"city":"Washington","state":" D.C.","amount":113600.0,"name":"Mark Japinga","notes":"a legislative researcher from Washington, D.C.","games":7.0,"Lat":"38.9071923","Lng":"-77.0368707","location":"38.9071923,-77.0368707"},{"city":"Leominster","state":" Massachusetts","amount":113299.0,"name":"Kevin Joyce","notes":"a customer service representative from Leominster, Massachusetts","games":4.0,"Lat":"42.5250906","Lng":"-71.759794","location":"42.5250906,-71.759794"},{"city":"Homer","state":" New York","amount":112000.0,"name":"Justin Vossler","notes":"a high school history teacher from Homer, New York","games":7.0,"Lat":"42.63701409999999","Lng":"-76.1788174","location":"42.63701409999999,-76.1788174"},{"city":"San Francisco","state":" California","amount":110411.0,"name":"Paul Kursky","notes":"a copywriter from San Francisco, California","games":7.0,"Lat":"37.7749295","Lng":"-122.4194155","location":"37.7749295,-122.4194155"},{"city":"Churchville","state":" New York","amount":110200.0,"name":"Jack Feerick","notes":"a freelance writer from Churchville, New York","games":4.0,"Lat":"43.1042277","Lng":"-77.8844543","location":"43.1042277,-77.8844543"},{"city":"Studio City","state":" California","amount":109605.0,"name":"Steve Unite","notes":"a writer from Studio City, California","games":7.0,"Lat":"34.1395597","Lng":"-118.3870991","location":"34.1395597,-118.3870991"},{"city":"Vermilion","state":" Ohio","amount":109499.0,"name":"Tim Aten","notes":"an editor from Vermilion, Ohio","games":10.0,"Lat":"41.4219889","Lng":"-82.36460679999999","location":"41.4219889,-82.36460679999999"},{"city":"Macungie","state":" Pennsylvania","amount":109049.0,"name":"Ryan Bilger","notes":"a student from Macungie, Pennsylvania","games":5.0,"Lat":"40.51593039999999","Lng":"-75.55518579999999","location":"40.51593039999999,-75.55518579999999"},{"city":"Santa Monica","state":" California","amount":109002.0,"name":"Scott Lord","notes":"a construction attorney from Santa Monica, California","games":7.0,"Lat":"34.0194543","Lng":"-118.4911912","location":"34.0194543,-118.4911912"},{"city":"Ogden","state":" Utah","amount":109000.0,"name":"Tim Kutz","notes":"a data conversion manager from Ogden, Utah","games":5.0,"Lat":"41.223","Lng":"-111.9738304","location":"41.223,-111.9738304"},{"city":"Round Rock","state":" Texas","amount":107602.0,"name":"Eric R. Backes","notes":"an attorney and government relations professional from Round Rock, Texas","games":5.0,"Lat":"30.5082551","Lng":"-97.678896","location":"30.5082551,-97.678896"},{"city":"Placentia","state":" California","amount":107400.0,"name":"Seth Alcorn","notes":"a bookseller from Placentia, California","games":6.0,"Lat":"33.8710729","Lng":"-117.8627548","location":"33.8710729,-117.8627548"},{"city":"Beckley","state":" West Virginia","amount":107204.0,"name":"John Krizel","notes":"a green community program coordinator from Beckley, West Virginia","games":6.0,"Lat":"37.7781702","Lng":"-81.1881557","location":"37.7781702,-81.1881557"},{"city":"Newport News","state":" Virginia","amount":107000.0,"name":"Christian Haines","notes":"a Congressional special assistant from Newport News, Virginia","games":7.0,"Lat":"37.0870821","Lng":"-76.4730122","location":"37.0870821,-76.4730122"},{"city":"Los Angeles","state":" California","amount":105902.0,"name":"Jon Eisenman","notes":"an attorney from Los Angeles, California","games":7.0,"Lat":"34.0522342","Lng":"-118.2436849","location":"34.0522342,-118.2436849"},{"city":"Austin","state":" Texas","amount":105803.0,"name":"Cindy Stowell","notes":"a science content developer from Austin, Texas","games":7.0,"Lat":"30.267153","Lng":"-97.7430608","location":"30.267153,-97.7430608"},{"city":"Ann Arbor","state":" Michigan","amount":105500.0,"name":"John Schultz","notes":"a computer programmer from Ann Arbor, Michigan","games":8.0,"Lat":"42.2808256","Lng":"-83.7430378","location":"42.2808256,-83.7430378"},{"city":"Salt Lake City","state":" Utah","amount":105497.0,"name":"Anneke Garcia","notes":"an instructional design consultant from Salt Lake City, Utah","games":5.0,"Lat":"40.7607793","Lng":"-111.8910474","location":"40.7607793,-111.8910474"},{"city":"Baltimore","state":" Maryland","amount":105203.0,"name":"Megan Barnes","notes":"a stay-at-home mother from Baltimore, Maryland","games":4.0,"Lat":"39.2903848","Lng":"-76.6121893","location":"39.2903848,-76.6121893"},{"city":"Boynton Beach","state":" Florida","amount":105103.0,"name":"Jeff Spoeri","notes":"a university administrator from Boynton Beach, Florida","games":8.0,"Lat":"26.5317866","Lng":"-80.0905465","location":"26.5317866,-80.0905465"},{"city":"Bloomington","state":" Minnesota","amount":104800.0,"name":"Mike Lewis","notes":"a systems engineer from Bloomington, Minnesota","games":5.0,"Lat":"44.840798","Lng":"-93.2982799","location":"44.840798,-93.2982799"},{"city":"Tokyo","state":" Japan","amount":104300.0,"name":"Tom Baker","notes":"a writer from Tokyo, Japan","games":6.0,"Lat":"35.6761919","Lng":"139.6503106","location":"35.6761919,139.6503106"},{"city":"South Coffeyville","state":" Oklahoma","amount":104205.0,"name":"Joshua Brakhage","notes":"a TV news producer originally from South Coffeyville, Oklahoma","games":8.0,"Lat":"36.99452480000001","Lng":"-95.6202552","location":"36.99452480000001,-95.6202552"},{"city":"Columbia","state":" Maryland","amount":104103.0,"name":"Vaughn Winchell","notes":"a stay-at-home dad and graduate student from Columbia, Maryland","games":8.0,"Lat":"39.2037144","Lng":"-76.86104619999999","location":"39.2037144,-76.86104619999999"},{"city":"Raleigh","state":" North Carolina","amount":104000.0,"name":"David Skaar","notes":"a research scientist from Raleigh, North Carolina","games":4.0,"Lat":"35.7795897","Lng":"-78.6381787","location":"35.7795897,-78.6381787"},{"city":"Flushing","state":" New York","amount":103597.0,"name":"Frank Spangenberg","notes":"a police officer from Flushing, New York","games":17.0,"Lat":"40.7674987","Lng":"-73.833079","location":"40.7674987,-73.833079"},{"city":"Pittsburgh","state":" Pennsylvania","amount":103002.0,"name":"Lindsey Shultz","notes":"a physician and health care analyst from Pittsburgh, Pennsylvania","games":5.0,"Lat":"40.44062479999999","Lng":"-79.9958864","location":"40.44062479999999,-79.9958864"},{"city":"Fresh Meadows","state":" New York","amount":102600.0,"name":"Rebecca Rider","notes":"an office supply sales assistant from Fresh Meadows, New York","games":8.0,"Lat":"40.7335179","Lng":"-73.7801447","location":"40.7335179,-73.7801447"},{"city":"Old Town","state":" Maine","amount":101200.0,"name":"Jason Richards","notes":"a pharmacy technician from Old Town, Maine","games":7.0,"Lat":"44.9342349","Lng":"-68.6453092","location":"44.9342349,-68.6453092"},{"city":"Pittsburgh","state":" Pennsylvania","amount":101102.0,"name":"Dave Leffler","notes":"a retired police officer from Pittsburgh, Pennsylvania","games":5.0,"Lat":"40.44062479999999","Lng":"-79.9958864","location":"40.44062479999999,-79.9958864"},{"city":"Grand Blanc","state":" Michigan","amount":100400.0,"name":"Chuck Forrest","notes":"a student from Grand Blanc, Michigan","games":16.0,"Lat":"42.9275277","Lng":"-83.6299518","location":"42.9275277,-83.6299518"},{"city":"Metairie","state":" Louisiana","amount":100201.0,"name":"Kevin Marshall","notes":"a student from Metairie, Louisiana","games":9.0,"Lat":"29.9840922","Lng":"-90.1528519","location":"29.9840922,-90.1528519"},{"city":"Atlanta","state":" Georgia","amount":100054.0,"name":"Dave Leach","notes":"a software analyst from Atlanta, Georgia","games":9.0,"Lat":"33.748752","Lng":"-84.38768449999999","location":"33.748752,-84.38768449999999"},{"city":"Calhoun","state":" Georgia","amount":99800.0,"name":"Eric Floyd","notes":"a college student from Calhoun, Georgia","games":9.0,"Lat":"34.502587","Lng":"-84.9510542","location":"34.502587,-84.9510542"},{"city":"Cincinnati","state":" Ohio","amount":98699.0,"name":"Dave Abbott","notes":"a musician and contract manager from Cincinnati, Ohio","games":11.0,"Lat":"39.1031182","Lng":"-84.5120196","location":"39.1031182,-84.5120196"},{"city":"Portland","state":" Oregon","amount":98690.0,"name":"Stephen Weingarten","notes":"a paraeducator from Portland, Oregon","games":6.0,"Lat":"45.515232","Lng":"-122.6783853","location":"45.515232,-122.6783853"},{"city":"Squamish","state":" British Columbia","amount":98599.0,"name":"Andrew Haringer","notes":"a college instructor from Squamish, British Columbia, Canada","games":8.0,"Lat":"49.7016339","Lng":"-123.1558121","location":"49.7016339,-123.1558121"},{"city":"Chicago","state":" Illinois","amount":98002.0,"name":"Emma Boettcher","notes":"a user experience librarian from Chicago, Illinois","games":4.0,"Lat":"41.8781136","Lng":"-87.6297982","location":"41.8781136,-87.6297982"},{"city":"Atlanta","state":" Georgia","amount":97598.0,"name":"Philip Tiu","notes":"an educator from Atlanta, Georgia","games":4.0,"Lat":"33.748752","Lng":"-84.38768449999999","location":"33.748752,-84.38768449999999"},{"city":"Kinston","state":" North Carolina","amount":97201.0,"name":"Catherine Hardee","notes":"a hotel front desk clerk and recent college graduate from Kinston, North Carolina","games":7.0,"Lat":"35.2626635","Lng":"-77.5816353","location":"35.2626635,-77.5816353"},{"city":"Chicago","state":" Illinois","amount":97000.0,"name":"Michael Bilow","notes":"a Ph.D. student in computer science originally from Chicago, Illinois","games":5.0,"Lat":"41.8781136","Lng":"-87.6297982","location":"41.8781136,-87.6297982"},{"city":"Crawfordsville","state":" Indiana","amount":96752.0,"name":"Christopher Short","notes":"a pub trivia editor from Crawfordsville, Indiana","games":8.0,"Lat":"40.0411536","Lng":"-86.87445160000001","location":"40.0411536,-86.87445160000001"},{"city":"Boston","state":" Massachusetts","amount":96404.0,"name":"Erik Nelson","notes":"a graduate student from Boston, Massachusetts","games":6.0,"Lat":"42.3600825","Lng":"-71.0588801","location":"42.3600825,-71.0588801"},{"city":"Newark","state":" Delaware","amount":95201.0,"name":"Kristin Sausville","notes":"a stay-at-home mom from Newark, Delaware","games":7.0,"Lat":"39.6837226","Lng":"-75.74965720000002","location":"39.6837226,-75.74965720000002"},{"city":"Pasadena","state":" California","amount":94880.0,"name":"Alex Schmidt","notes":"a writer and comedian from Pasadena, California","games":5.0,"Lat":"34.1477849","Lng":"-118.1445155","location":"34.1477849,-118.1445155"},{"city":"Los Angeles","state":" California","amount":94301.0,"name":"Jonathan Dinerstein","notes":"a composer from Los Angeles, California","games":5.0,"Lat":"34.0522342","Lng":"-118.2436849","location":"34.0522342,-118.2436849"},{"city":"Perrysburg","state":" Ohio","amount":94200.0,"name":"John Presloid","notes":"a microbiologist from Perrysburg, Ohio","games":5.0,"Lat":"41.556996","Lng":"-83.627157","location":"41.556996,-83.627157"},{"city":"Los Angeles","state":" California","amount":92900.0,"name":"Ryan Chaffee","notes":"a tutor from Los Angeles, California","games":6.0,"Lat":"34.0522342","Lng":"-118.2436849","location":"34.0522342,-118.2436849"},{"city":"Lancaster","state":" Pennsylvania","amount":92603.0,"name":"Brad Rutter","notes":"a college student from Lancaster, Pennsylvania","games":34.0,"Lat":"40.0378755","Lng":"-76.3055144","location":"40.0378755,-76.3055144"},{"city":"Anchorage","state":" Alaska","amount":92500.0,"name":"Brian Meacham","notes":"a film preservationist originally from Anchorage, Alaska","games":6.0,"Lat":"61.2175758","Lng":"-149.8996785","location":"61.2175758,-149.8996785"},{"city":"South Euclid","state":" Ohio","amount":92400.0,"name":"Kerry Breitenbach","notes":"a marketing analyst from South Euclid, Ohio","games":7.0,"Lat":"41.5231076","Lng":"-81.5184553","location":"41.5231076,-81.5184553"},{"city":"Jasper","state":" Indiana","amount":92041.0,"name":"Jason McCune","notes":"an actor originally from Jasper, Indiana","games":6.0,"Lat":"38.3914418","Lng":"-86.9311094","location":"38.3914418,-86.9311094"},{"city":"New York","state":" New York","amount":91700.0,"name":"Regina Robbins","notes":"an arts teacher from New York, New York","games":6.0,"Lat":"40.7127753","Lng":"-74.0059728","location":"40.7127753,-74.0059728"},{"city":"Ann Arbor","state":" Michigan","amount":91398.0,"name":"Sarah McNitt","notes":"a study-abroad advisor originally from Ann Arbor, Michigan","games":7.0,"Lat":"42.2808256","Lng":"-83.7430378","location":"42.2808256,-83.7430378"},{"city":"SeaTac","state":" Washington","amount":91198.0,"name":"Ryan Fenster","notes":"a banker from SeaTac, Washington","games":9.0,"Lat":"47.4435903","Lng":"-122.2960726","location":"47.4435903,-122.2960726"},{"city":"Boston","state":" Massachusetts","amount":91108.0,"name":"Sandra Gore","notes":"a researcher originally from Boston, Massachusetts","games":10.0,"Lat":"42.3600825","Lng":"-71.0588801","location":"42.3600825,-71.0588801"},{"city":"Portland","state":" Oregon","amount":90999.0,"name":"Avi Gupta","notes":"a senior from Portland, Oregon","games":4.0,"Lat":"45.515232","Lng":"-122.6783853","location":"45.515232,-122.6783853"},{"city":"Belcamp","state":" Maryland","amount":90901.0,"name":"Dave Simpson","notes":"a pastor from Belcamp, Maryland","games":7.0,"Lat":"39.4737199","Lng":"-76.24134459999999","location":"39.4737199,-76.24134459999999"},{"city":"Austin","state":" Texas","amount":90774.0,"name":"Carlos Ross","notes":"a customer service representative from Austin, Texas","games":4.0,"Lat":"30.267153","Lng":"-97.7430608","location":"30.267153,-97.7430608"},{"city":"Fredericksburg","state":" Virginia","amount":90500.0,"name":"Lori Kissell","notes":"a high school Latin teacher from Fredericksburg, Virginia","games":4.0,"Lat":"38.3031837","Lng":"-77.4605399","location":"38.3031837,-77.4605399"},{"city":"Fort Worth","state":" Texas","amount":89804.0,"name":"Buddy Wright","notes":"an operations engineer from Fort Worth, Texas","games":9.0,"Lat":"32.7554883","Lng":"-97.3307658","location":"32.7554883,-97.3307658"},{"city":"Peoria","state":" Arizona","amount":89299.0,"name":"Mark Brown","notes":"an administrative assistant and father from Peoria, Arizona","games":7.0,"Lat":"33.5805955","Lng":"-112.2373779","location":"33.5805955,-112.2373779"},{"city":"Pomona","state":" California","amount":88500.0,"name":"Mary Ann Borer","notes":"a marketing coordinator from Pomona, California","games":5.0,"Lat":"34.055103","Lng":"-117.7499909","location":"34.055103,-117.7499909"},{"city":"Los Angeles","state":" California","amount":88089.0,"name":"Jackie Fuchs","notes":"an attorney and writer from Los Angeles, California","games":5.0,"Lat":"34.0522342","Lng":"-118.2436849","location":"34.0522342,-118.2436849"},{"city":"Brooklyn","state":" New York","amount":87601.0,"name":"Sara Heard","notes":"a housewife from Brooklyn, New York","games":5.0,"Lat":"40.6781784","Lng":"-73.9441579","location":"40.6781784,-73.9441579"},{"city":"Bethesda","state":" Maryland","amount":87299.0,"name":"Donna Vogel","notes":"a scientist from Bethesda, Maryland","games":7.0,"Lat":"38.984652","Lng":"-77.0947092","location":"38.984652,-77.0947092"},{"city":"Plano","state":" Texas","amount":87200.0,"name":"Jason Shore","notes":"a medical student from Plano, Texas","games":7.0,"Lat":"33.0198431","Lng":"-96.6988856","location":"33.0198431,-96.6988856"},{"city":"Kansas City","state":" Missouri","amount":87102.0,"name":"Alison Stone Roberg","notes":"an administrative assistant from Kansas City, Missouri","games":4.0,"Lat":"39.0997265","Lng":"-94.5785667","location":"39.0997265,-94.5785667"},{"city":"Atlanta","state":" Georgia","amount":87100.0,"name":"Tad Carithers","notes":"an attorney from Atlanta, Georgia","games":11.0,"Lat":"33.748752","Lng":"-84.38768449999999","location":"33.748752,-84.38768449999999"},{"city":"Regina","state":" Saskatchewan","amount":86900.0,"name":"Doug Hicton","notes":"a composer originally from Regina, Saskatchewan, Canada","games":8.0,"Lat":"50.4452112","Lng":"-104.6188944","location":"50.4452112,-104.6188944"},{"city":"Los Angeles","state":" California","amount":86870.0,"name":"Stefan Goodreau","notes":"a video game tester and camp counselor from Los Angeles, California","games":10.0,"Lat":"34.0522342","Lng":"-118.2436849","location":"34.0522342,-118.2436849"},{"city":"Omaha","state":" Nebraska","amount":86600.0,"name":"Elyse Mancuso","notes":"a junior from Omaha, Nebraska","games":4.0,"Lat":"41.2565369","Lng":"-95.9345034","location":"41.2565369,-95.9345034"},{"city":"Los Angeles","state":" California","amount":86600.0,"name":"Anne Boyd","notes":"a freelance writer from Los Angeles, California","games":7.0,"Lat":"34.0522342","Lng":"-118.2436849","location":"34.0522342,-118.2436849"},{"city":"Columbus","state":" Ohio","amount":86400.0,"name":"Doug Lach","notes":"a product development manager from Columbus, Ohio","games":7.0,"Lat":"39.9611755","Lng":"-82.99879419999999","location":"39.9611755,-82.99879419999999"},{"city":"Princeton","state":" New Jersey","amount":86201.0,"name":"Gilbert Collins","notes":"a university administrator from Princeton, New Jersey","games":6.0,"Lat":"40.3572976","Lng":"-74.6672226","location":"40.3572976,-74.6672226"},{"city":"Denver","state":" Colorado","amount":86100.0,"name":"Jim Stalley","notes":"a crime data specialist from Denver, Colorado","games":6.0,"Lat":"39.7392358","Lng":"-104.990251","location":"39.7392358,-104.990251"},{"city":"Washington","state":" D.C.","amount":86099.0,"name":"Jill Bunzendahl Chimka","notes":"a speech and language pathologist from Washington, D.C.","games":8.0,"Lat":"38.9071923","Lng":"-77.0368707","location":"38.9071923,-77.0368707"},{"city":"Toronto","state":" Ontario","amount":86003.0,"name":"Darryl Tahirali","notes":"a proposal writer originally from Toronto, Ontario, Canada","games":4.0,"Lat":"43.653226","Lng":"-79.3831843","location":"43.653226,-79.3831843"},{"city":"Jamaica Plain","state":" Massachusetts","amount":85700.0,"name":"David Gard","notes":"a retail horticulturist from Jamaica Plain, Massachusetts","games":6.0,"Lat":"42.3132414","Lng":"-71.1141118","location":"42.3132414,-71.1141118"},{"city":"Cincinnati","state":" Ohio","amount":85601.0,"name":"Rachel Horn","notes":"a sophomore from Cincinnati, Ohio","games":4.0,"Lat":"39.1031182","Lng":"-84.5120196","location":"39.1031182,-84.5120196"},{"city":"Chicago","state":" Illinois","amount":85402.0,"name":"Tom Kelso","notes":"a credit analyst from Chicago, Illinois","games":4.0,"Lat":"41.8781136","Lng":"-87.6297982","location":"41.8781136,-87.6297982"},{"city":"Chicago","state":" Illinois","amount":85401.0,"name":"Kara Spak","notes":"a newspaper reporter from Chicago, Illinois","games":8.0,"Lat":"41.8781136","Lng":"-87.6297982","location":"41.8781136,-87.6297982"},{"city":"Hereford","state":" Maryland","amount":85100.0,"name":"Travis Troyer","notes":"a software engineer from Hereford, Maryland","games":7.0,"Lat":"39.5889939","Lng":"-76.6633047","location":"39.5889939,-76.6633047"},{"city":"San Francisco","state":" California","amount":84901.0,"name":"Chris Fleitas","notes":"a high school college prep counselor from San Francisco, California","games":3.0,"Lat":"37.7749295","Lng":"-122.4194155","location":"37.7749295,-122.4194155"},{"city":"Philadelphia","state":" Pennsylvania","amount":84601.0,"name":"Celeste DiNucci","notes":"a grad student from Philadelphia, Pennsylvania","games":11.0,"Lat":"39.9525839","Lng":"-75.1652215","location":"39.9525839,-75.1652215"},{"city":"Bedford","state":" Massachusetts","amount":84500.0,"name":"Mark Eckard","notes":"a software engineer from Bedford, Massachusetts","games":9.0,"Lat":"42.4906231","Lng":"-71.2760089","location":"42.4906231,-71.2760089"},{"city":"Bombay","state":" India","amount":84400.0,"name":"Vijay Balse","notes":"a chemical engineer originally from Bombay, India","games":10.0,"Lat":"19.0759837","Lng":"72.8776559","location":"19.0759837,72.8776559"},{"city":"Largo","state":" Florida","amount":84002.0,"name":"Patrick Macaraeg","notes":"a software engineer from Largo, Florida","games":4.0,"Lat":"27.9094665","Lng":"-82.7873244","location":"27.9094665,-82.7873244"},{"city":"Sherman Oaks","state":" California","amount":83901.0,"name":"Alan Bailey","notes":"a playwright and director from Sherman Oaks, California","games":8.0,"Lat":"34.1489719","Lng":"-118.451357","location":"34.1489719,-118.451357"},{"city":"Concord","state":" California","amount":83405.0,"name":"Pat Healy","notes":"an index editor from Concord, California","games":8.0,"Lat":"37.9779776","Lng":"-122.0310733","location":"37.9779776,-122.0310733"},{"city":"New Orleans","state":" Louisiana","amount":83403.0,"name":"Todd Giese","notes":"a hotel front desk manager from New Orleans, Louisiana","games":5.0,"Lat":"29.95106579999999","Lng":"-90.0715323","location":"29.95106579999999,-90.0715323"},{"city":"Sacramento","state":" California","amount":82800.0,"name":"Rich Rosenlof","notes":"a sales representative from Sacramento, California","games":4.0,"Lat":"38.5815719","Lng":"-121.4943996","location":"38.5815719,-121.4943996"},{"city":"Northville","state":" Michigan","amount":82701.0,"name":"Patrick Morrison","notes":"a student of Slavic Studies from Northville, Michigan","games":4.0,"Lat":"42.4311464","Lng":"-83.4832692","location":"42.4311464,-83.4832692"},{"city":"Lakewood","state":" Colorado","amount":82101.0,"name":"Nick Condon","notes":"a research chemist originally from Lakewood, Colorado","games":4.0,"Lat":"39.7047095","Lng":"-105.0813734","location":"39.7047095,-105.0813734"},{"city":"Negaunee","state":" Michigan","amount":81796.0,"name":"Melissa Prusi","notes":"a marketing writer originally from Negaunee, Michigan","games":4.0,"Lat":"46.5090928","Lng":"-87.60687209999999","location":"46.5090928,-87.60687209999999"},{"city":"Paducah","state":" Kentucky","amount":81402.0,"name":"Zia Choudhury","notes":"a senior from Paducah, Kentucky","games":4.0,"Lat":"37.0833893","Lng":"-88.6000478","location":"37.0833893,-88.6000478"},{"city":"Redlands","state":" California","amount":80895.0,"name":"Brian Wangsgard","notes":"a senior marketing representative from Redlands, California","games":11.0,"Lat":"34.0563884","Lng":"-117.2058765","location":"34.0563884,-117.2058765"},{"city":"Los Angeles","state":" California","amount":80600.0,"name":"Ben Tritle","notes":"an apartment manager from Los Angeles, California","games":6.0,"Lat":"34.0522342","Lng":"-118.2436849","location":"34.0522342,-118.2436849"},{"city":"Red Oak","state":" Texas","amount":80501.0,"name":"Kathleen Ellis","notes":"a registered nurse from Red Oak, Texas","games":4.0,"Lat":"32.5332101","Lng":"-96.8153","location":"32.5332101,-96.8153"},{"city":"Muncie","state":" Indiana","amount":80401.0,"name":"Scott McFadden","notes":"a librarian from Muncie, Indiana","games":4.0,"Lat":"40.1933767","Lng":"-85.3863599","location":"40.1933767,-85.3863599"},{"city":"Virginia Beach","state":" Virginia","amount":80401.0,"name":"Francis Lansangan","notes":"a military analyst from Virginia Beach, Virginia","games":4.0,"Lat":"36.8516437","Lng":"-75.97921939999999","location":"36.8516437,-75.97921939999999"},{"city":"Los Angeles","state":" California","amount":80399.0,"name":"Matt Caruso","notes":"a director of market research from Los Angeles, California","games":4.0,"Lat":"34.0522342","Lng":"-118.2436849","location":"34.0522342,-118.2436849"},{"city":"Medford","state":" Massachusetts","amount":80000.0,"name":"Laurie MacDougall","notes":"a cancer registrar originally from Medford, Massachusetts","games":4.0,"Lat":"42.4184296","Lng":"-71.1061639","location":"42.4184296,-71.1061639"},{"city":"La Grange","state":" Illinois","amount":79803.0,"name":"Matt Kohlstedt","notes":"a graduate student originally from La Grange, Illinois","games":8.0,"Lat":"41.8050314","Lng":"-87.8692254","location":"41.8050314,-87.8692254"},{"city":"Old Forge","state":" Pennsylvania","amount":79400.0,"name":"Dave Mattingly","notes":"a director of technology from Old Forge, Pennsylvania","games":4.0,"Lat":"41.3711906","Lng":"-75.7349143","location":"41.3711906,-75.7349143"},{"city":"New York","state":" New York","amount":79202.0,"name":"Joe Nguyen","notes":"an attorney from New York, New York","games":4.0,"Lat":"40.7127753","Lng":"-74.0059728","location":"40.7127753,-74.0059728"},{"city":"Columbia","state":" Missouri","amount":78597.0,"name":"Chris Mazurek","notes":"an assistant professor from Columbia, Missouri","games":7.0,"Lat":"38.9517053","Lng":"-92.3340724","location":"38.9517053,-92.3340724"},{"city":"Cleveland","state":" Ohio","amount":78400.0,"name":"Deborah Elliott","notes":"an educator from Cleveland, Ohio","games":4.0,"Lat":"41.49932","Lng":"-81.6943605","location":"41.49932,-81.6943605"},{"city":"Washington","state":" D.C.","amount":78202.0,"name":"Nick Swezey","notes":"a publisher from Washington, D.C.","games":5.0,"Lat":"38.9071923","Lng":"-77.0368707","location":"38.9071923,-77.0368707"},{"city":"Toronto","state":" Ontario","amount":77998.0,"name":"Kevin Wilson","notes":"a communications specialist from Toronto, Ontario, Canada","games":4.0,"Lat":"43.653226","Lng":"-79.3831843","location":"43.653226,-79.3831843"},{"city":"San Francisco","state":" California","amount":77600.0,"name":"Dan Melia","notes":"a professor from San Francisco, California","games":13.0,"Lat":"37.7749295","Lng":"-122.4194155","location":"37.7749295,-122.4194155"},{"city":"Okemos","state":" Michigan","amount":77403.0,"name":"Sara Garnett","notes":"a graduate student of zoology originally from Okemos, Michigan","games":4.0,"Lat":"42.722257","Lng":"-84.4274744","location":"42.722257,-84.4274744"},{"city":"Erie","state":" Pennsylvania","amount":77299.0,"name":"Adam Holquist","notes":"an environmental engineer from Erie, Pennsylvania","games":4.0,"Lat":"42.12922409999999","Lng":"-80.085059","location":"42.12922409999999,-80.085059"},{"city":"New York City","state":" New York","amount":77204.0,"name":"Ed Schiffer","notes":"a college lecturer originally from New York City, New York","games":8.0,"Lat":"40.7127753","Lng":"-74.0059728","location":"40.7127753,-74.0059728"},{"city":"Denver","state":" Colorado","amount":77191.0,"name":"Jon Groubert","notes":"a former attorney from Denver, Colorado","games":4.0,"Lat":"39.7392358","Lng":"-104.990251","location":"39.7392358,-104.990251"},{"city":"Houston","state":" Texas","amount":77100.0,"name":"Babu Srinivasan","notes":"a graduate student and history teacher from Houston, Texas","games":10.0,"Lat":"29.7604267","Lng":"-95.3698028","location":"29.7604267,-95.3698028"},{"city":"Newton","state":" Massachusetts","amount":77000.0,"name":"David Rozenson","notes":"a lawyer from Newton, Massachusetts","games":5.0,"Lat":"42.3370413","Lng":"-71.20922139999999","location":"42.3370413,-71.20922139999999"},{"city":"Bend","state":" Oregon","amount":76999.0,"name":"Rachel Lindgren","notes":"a fire lookout from Bend, Oregon","games":6.0,"Lat":"44.0581728","Lng":"-121.3153096","location":"44.0581728,-121.3153096"},{"city":"Boca Raton","state":" Florida","amount":76802.0,"name":"Alan Koolik","notes":"a junior from Boca Raton, Florida","games":4.0,"Lat":"26.3683064","Lng":"-80.1289321","location":"26.3683064,-80.1289321"},{"city":"Mount Pleasant","state":" South Carolina","amount":76802.0,"name":"Will Dantzler","notes":"a senior from Mount Pleasant, South Carolina","games":4.0,"Lat":"32.8323225","Lng":"-79.82842579999999","location":"32.8323225,-79.82842579999999"},{"city":"Bonita Springs","state":" Florida","amount":76399.0,"name":"Bill MacDonald","notes":"an attorney from Bonita Springs, Florida","games":9.0,"Lat":"26.339806","Lng":"-81.7786972","location":"26.339806,-81.7786972"},{"city":"Norman","state":" Oklahoma","amount":76102.0,"name":"Steve Reynolds","notes":"an accountant from Norman, Oklahoma","games":7.0,"Lat":"35.2225668","Lng":"-97.4394777","location":"35.2225668,-97.4394777"},{"city":"Reston","state":" Virginia","amount":76099.0,"name":"Eddie Timanus","notes":"a sportswriter from Reston, Virginia","games":10.0,"Lat":"38.9586307","Lng":"-77.35700279999999","location":"38.9586307,-77.35700279999999"},{"city":"Louisville","state":" Kentucky","amount":75800.0,"name":"Julie Dunlevy","notes":"a technology specialist from Louisville, Kentucky","games":4.0,"Lat":"38.2526647","Lng":"-85.7584557","location":"38.2526647,-85.7584557"},{"city":"Santa Barbara","state":" California","amount":75000.0,"name":"John Ryan","notes":"a student from Santa Barbara, California","games":8.0,"Lat":"34.4208305","Lng":"-119.6981901","location":"34.4208305,-119.6981901"},{"city":"Athens","state":" Georgia","amount":74701.0,"name":"Sara Wilkinson","notes":"a country club concierge from Athens, Georgia","games":4.0,"Lat":"33.9519347","Lng":"-83.357567","location":"33.9519347,-83.357567"},{"city":"Brooklyn","state":" New York","amount":74601.0,"name":"Rob Liguori","notes":"a research editor from Brooklyn, New York","games":5.0,"Lat":"40.6781784","Lng":"-73.9441579","location":"40.6781784,-73.9441579"},{"city":"New York","state":" New York","amount":74600.0,"name":"Jeff Goldfarb","notes":"a recent law school graduate from New York, New York","games":3.0,"Lat":"40.7127753","Lng":"-74.0059728","location":"40.7127753,-74.0059728"},{"city":"Lexington","state":" Kentucky","amount":74583.0,"name":"Kermin Fleming","notes":"a junior at Carnegie Mellon University from Lexington, Kentucky","games":6.0,"Lat":"38.0405837","Lng":"-84.5037164","location":"38.0405837,-84.5037164"}]